{"fires":[{"name":"Rim","type":"Wildfire","state":"CA","resources":"","lat":"41.8061","lon":" -121.4307","geo":{"state":"CA","state_name":"Oregon","near":"Klamath Falls, OR","near_long":"Klamath Falls, Oregon","location":"29.2 miles SSE of Klamath Falls, OR"},"wfid":"106973","date":"1582497000","acres":"3","notes":"Med pri for ck 2\/24\/2020 | Contain: 02\/24\/20 1003 | Control: 02\/24\/20 1004","updated":"1583436903","num":"MDF-75","status":"contained","url":"rim"},{"name":"Artica","type":"Wildfire","state":"CA","resources":"","lat":"41.6002","lon":" -121.5849","geo":{"state":"CA","state_name":"Oregon","near":"Klamath Falls, OR","near_long":"Klamath Falls, Oregon","location":"40.6 miles S of Klamath Falls, OR"},"wfid":"106993","date":"1582423620","acres":null,"notes":"","updated":"1583436903","num":"MDF-74","status":"active","url":"artica"},{"name":"Goat","type":"Wildfire","state":"WA","resources":"","lat":"46.4584","lon":" -122.1423","geo":{"state":"WA","state_name":"Washington","near":"Tacoma, WA","near_long":"Tacoma, Washington","location":"45.4 miles SSE of Tacoma, WA"},"wfid":"107071","date":"1582653780","acres":"0.1","notes":"Patrol status  | Contain: 02\/25\/20 1147 | Control: 02\/25\/20 1428","updated":"1583436903","num":"PCS-5","status":"contained","url":"goat"},{"name":"Outside Investigation","type":"Wildfire","state":"CA","resources":"","lat":"34.584","lon":" -118.3112","geo":{"state":"CA","state_name":"California","near":"Los Angeles, CA","near_long":"Los Angeles, California","location":"31.4 miles NNW of Los Angeles, CA"},"wfid":"107353","date":"1583033100","acres":null,"notes":"","updated":"1583436903","num":"ANF-624","status":"active","url":"outside-investigation"},{"name":"Bdu\/Keough","type":"Wildfire","state":"CA","resources":"","lat":"37.2714","lon":" -118.3708","geo":{"state":"CA","state_name":"California","near":"Bishop, CA","near_long":"Bishop, California","location":"6.4 miles SSE of Bishop, CA"},"wfid":"107383","date":"1583102940","acres":null,"notes":"","updated":"1583436903","num":"OVCC-268","status":"active","url":"bdu\/keough"},{"name":"Sea Tree","type":"Wildfire","state":"WA","resources":"","lat":"46.2724","lon":" -123.4653","geo":{"state":"WA","state_name":"Oregon","near":"Portland, OR","near_long":"Portland, Oregon","location":"53 miles NW of Portland, OR"},"wfid":"107401","date":"1583074320","acres":"0.1","notes":"Patrol status  | Contain: 03\/02\/20 1525 | Control: 03\/02\/20 1600","updated":"1583436903","num":"PCS-7","status":"contained","url":"sea-tree"},{"name":"Clarkson","type":"Wildfire","state":"WA","resources":"","lat":"48.6736","lon":" -119.4671","geo":{"state":"WA","state_name":"Washington","near":"Tonasket, WA","near_long":"Tonasket, Washington","location":"7.8 miles WSW of Tonasket, WA"},"wfid":"107412","date":"1583165940","acres":null,"notes":"","updated":"1583436903","num":"NES-1058","status":"active","url":"clarkson"},{"name":"Timber Ridge","type":"Wildfire","state":"WA","resources":"","lat":"47.5845","lon":" -117.1758","geo":{"state":"WA","state_name":"Washington","near":"Spokane, WA","near_long":"Spokane, Washington","location":"5.8 miles SSE of Spokane, WA"},"wfid":"107414","date":"1582583100","acres":"0.1","notes":"Contain: 02\/24\/20 1445 | Control: 02\/24\/20 1445","updated":"1583436903","num":"NES-1055","status":"contained","url":"timber-ridge"},{"name":"Quantum Leap","type":"Wildfire","state":"WA","resources":"","lat":"46.6159","lon":" -120.8131","geo":{"state":"WA","state_name":"Washington","near":"Yakima, WA","near_long":"Yakima, Washington","location":"9.2 miles W of Yakima, WA"},"wfid":"107415","date":"1582959600","acres":"0.3","notes":"Contain: 02\/29\/20 0000 | Control: 02\/29\/20 1130 | Out: 03\/05\/20 0820","updated":"1583436903","num":"SES-28","status":"out","url":"quantum-leap"},{"name":"Soledad","type":"Wildfire","state":"CA","resources":"","lat":"34.4406","lon":" -118.307","geo":{"state":"CA","state_name":"California","near":"Los Angeles, CA","near_long":"Los Angeles, California","location":"21.7 miles NNW of Los Angeles, CA"},"wfid":"107423","date":"1583171100","acres":null,"notes":"So 6    rd 2    p5ek1s","updated":"1583436903","num":"ANF-644","status":"active","url":"soledad"},{"name":"Buffalo Lane","type":"Wildfire","state":"WA","resources":"","lat":"48.3415","lon":" -117.2689","geo":{"state":"WA","state_name":"Washington","near":"Spokane, WA","near_long":"Spokane, Washington","location":"37.8 miles N of Spokane, WA"},"wfid":"107429","date":"1583187600","acres":"0.3","notes":"Contain: 03\/02\/20 1430 | Control: 03\/02\/20 1500 | Out: 03\/03\/20 1530","updated":"1583436903","num":"KAT-1059","status":"out","url":"buffalo-lane"},{"name":"Smoke Report","type":"Wildfire","state":"CA","resources":"","lat":"34.3313","lon":" -118.2713","geo":{"state":"CA","state_name":"California","near":"Los Angeles, CA","near_long":"Los Angeles, California","location":"13.9 miles NNW of Los Angeles, CA"},"wfid":"107435","date":"1583200740","acres":null,"notes":"","updated":"1583436903","num":"ANF-649","status":"active","url":"smoke-report"},{"name":"Omega","type":"Wildfire","state":"CA","resources":"","lat":"39.3175","lon":" -120.7257","geo":{"state":"CA","state_name":"Nevada","near":"Reno, NV","near_long":"Reno, Nevada","location":"45.6 miles WSW of Reno, NV"},"wfid":"107477","date":"1582824840","acres":null,"notes":"","updated":"1583436903","num":"TNF-183","status":"active","url":"omega"},{"name":"Antelope","type":"Wildfire","state":"CA","resources":"","lat":"39.6708","lon":" -120.3476","geo":{"state":"CA","state_name":"Nevada","near":"Reno, NV","near_long":"Reno, Nevada","location":"24.7 miles W of Reno, NV"},"wfid":"107480","date":"1581972900","acres":null,"notes":"","updated":"1583436903","num":"TNF-141","status":"active","url":"antelope"},{"name":"Baker","type":"Wildfire","state":"CA","resources":"DIV-3 E-331 E-333 E-342 E-61 E-72 WT-31","lat":"39.4614","lon":" -121.129","geo":{"state":"CA","state_name":"California","near":"Sacramento, CA","near_long":"Sacramento, California","location":"54.4 miles NNE of Sacramento, CA"},"wfid":"107565","date":"1583269620","acres":null,"notes":"","updated":"1583436903","num":"TNF-199","status":"active","url":"baker"},{"name":"Elochoman Divide 2.0","type":"Wildfire","state":"WA","resources":"","lat":"46.2341","lon":" -123.3074","geo":{"state":"WA","state_name":"Oregon","near":"Portland, OR","near_long":"Portland, Oregon","location":"46.8 miles NNW of Portland, OR"},"wfid":"107569","date":"1583274120","acres":null,"notes":"Out on arrival","updated":"1583436903","num":"PCS-10","status":"out","url":"elochoman-divide-2.0"},{"name":"Downie Canyon","type":"Wildfire","state":"WA","resources":"","lat":"47.8107","lon":" -120.1331","geo":{"state":"WA","state_name":"Washington","near":"East Wenatchee, WA","near_long":"East Wenatchee, Washington","location":"27.7 miles NNE of East Wenatchee, WA"},"wfid":"107573","date":"1583266320","acres":"2","notes":"Contain: 03\/03\/20 1518 | Control: 03\/05\/20 0800","updated":"1583436903","num":"SES-29","status":"contained","url":"downie-canyon"},{"name":"Brush","type":"Wildfire","state":"CA","resources":"","lat":"34.1867","lon":" -118.1776","geo":{"state":"CA","state_name":"California","near":"Los Angeles, CA","near_long":"Los Angeles, California","location":"3.8 miles NNE of Los Angeles, CA"},"wfid":"107577","date":"1583282040","acres":null,"notes":"","updated":"1583436903","num":"ANF-655","status":"active","url":"brush"},{"name":"Solo Spring","type":"Wildfire","state":"WA","resources":"","lat":"48.1421","lon":" -117.6458","geo":{"state":"WA","state_name":"Washington","near":"Spokane, WA","near_long":"Spokane, Washington","location":"26.6 miles NNW of Spokane, WA"},"wfid":"107624","date":"1583355540","acres":"2","notes":"Fire controlled  | Contain: 03\/04\/20 1430 | Control: 03\/04\/20 1500","updated":"1583436903","num":"NES-1061","status":"contained","url":"solo-spring"},{"name":"Ritchey","type":"Wildfire","state":"WA","resources":"","lat":"47.6091","lon":" -117.7136","geo":{"state":"WA","state_name":"Washington","near":"Spokane, WA","near_long":"Spokane, Washington","location":"7.1 miles SW of Spokane, WA"},"wfid":"107625","date":"1583346180","acres":"11","notes":"Patrol status | Contain: 03\/04\/20 1230 | Control: 03\/04\/20 1530","updated":"1583436903","num":"NES-1060","status":"contained","url":"ritchey"},{"name":"Veg\/Mm\/3619","type":"Wildfire","state":"CA","resources":"","lat":"34.1348","lon":" -116.3697","geo":{"state":"CA","state_name":"California","near":"Indio, CA","near_long":"Indio, California","location":"27.5 miles NNW of Indio, CA"},"wfid":"107645","date":"1583360640","acres":null,"notes":"","updated":"1583436903","num":"CDD-3867","status":"active","url":"veg\/mm\/3619"},{"name":"Veh\/Mm--Leave Open","type":"Wildfire","state":"CA","resources":"","lat":"35.4722","lon":" -115.5944","geo":{"state":"CA","state_name":"Nevada","near":"Las Vegas, NV","near_long":"Las Vegas, Nevada","location":"41.9 miles SSW of Las Vegas, NV"},"wfid":"107647","date":"1583342880","acres":null,"notes":"","updated":"1583436903","num":"CDD-3854","status":"active","url":"veh\/mmleave-open"},{"name":"Nolte","type":"Wildfire","state":"WA","resources":"BURNS EFFECTIVE","lat":"47.2644","lon":" -121.9364","geo":{"state":"WA","state_name":"Washington","near":"Tacoma, WA","near_long":"Tacoma, Washington","location":"19.8 miles E of Tacoma, WA"},"wfid":"107653","date":"1583368200","acres":"0.1","notes":" burns reed, m","updated":"1583436903","num":"SPS-2","status":"active","url":"nolte"},{"name":"Clover Flat Rx","type":"Wildfire","state":"OR","resources":"","lat":"42.4476","lon":" -120.3459","geo":{"state":"OR","state_name":"Oregon","near":"Lakeview, OR","near_long":"Lakeview, Oregon","location":"18 miles N of Lakeview, OR"},"wfid":"106404","date":"1581350280","acres":null,"notes":"Blm-lkvlast checked: 2\/13\/2020","updated":"1583436602","num":"ORLAD-7","status":"active","url":"clover-flat-rx"},{"name":"Kat Face Pine","type":"Wildfire","state":"OR","resources":"","lat":"44.996","lon":" -118.9431","geo":{"state":"OR","state_name":"Oregon","near":"Pilot Rock, OR","near_long":"Pilot Rock, Oregon","location":"34.2 miles S of Pilot Rock, OR"},"wfid":"107623","date":"1583283540","acres":"0.3","notes":"Human caused, resources responded 3\/4 | Contain: 03\/04\/20 1201 | Control: 03\/04\/20 1201","updated":"1583436602","num":"973S-54","status":"contained","url":"kat-face-pine"},{"name":"Ruckles Loop","type":"Wildfire","state":"OR","resources":"","lat":"44.798","lon":" -117.673","geo":{"state":"OR","state_name":"Oregon","near":"Baker City, OR","near_long":"Baker City, Oregon","location":"8 miles E of Baker City, OR"},"wfid":"106944","date":"1582346460","acres":"0.1","notes":"","updated":"1583436602","num":"VAD-10","status":"active","url":"ruckles-loop"},{"name":"Snively","type":"Wildfire","state":"OR","resources":"","lat":"43.7307","lon":" -117.2035","geo":{"state":"OR","state_name":"Idaho","near":"Caldwell, ID","near_long":"Caldwell, Idaho","location":"23.1 miles W of Caldwell, ID"},"wfid":"106945","date":"1582426920","acres":"0.1","notes":"","updated":"1583436602","num":"VAD-9","status":"active","url":"snively"},{"name":"Mm27 Hwy21","type":"Wildfire","state":"ID","resources":"","lat":"43.7059","lon":" -115.9513","geo":{"state":"ID","state_name":"Idaho","near":"Garden City, ID","near_long":"Garden City, Idaho","location":"16.2 miles ENE of Garden City, ID"},"wfid":"106980","date":"1582553460","acres":"0.1","notes":"Prot: idl id-sws, owner: private, county: boise, sghab: , elev: 3200' - 3400', acec: , wldns: , rfd: wilderness ranch fire | Contain: 02\/27\/20 1200 | Control: 02\/27\/20 1200","updated":"1583436602","num":"SWS-42","status":"contained","url":"mm27-hwy21"},{"name":"Couch","type":"Wildfire","state":"OR","resources":"","lat":"42.4179","lon":" -121.3731","geo":{"state":"OR","state_name":"Oregon","near":"Klamath Falls, OR","near_long":"Klamath Falls, Oregon","location":"21.1 miles NE of Klamath Falls, OR"},"wfid":"107054","date":"1582404120","acres":"1.7","notes":"Or-981slast checked: 02\/22\/2020 | Contain: 02\/22\/20 1423 | Control: 02\/22\/20 1423","updated":"1583436602","num":"OR981S-101","status":"contained","url":"couch"},{"name":"Wayside","type":"Wildfire","state":"OR","resources":"","lat":"45.0248","lon":" -118.9829","geo":{"state":"OR","state_name":"Oregon","near":"Pendleton, OR","near_long":"Pendleton, Oregon","location":"45.3 miles S of Pendleton, OR"},"wfid":"107557","date":"1583264040","acres":"0.1","notes":"Human caused, ODF stat fire, resources responded 3\/3","updated":"1583436602","num":"973S-53","status":"active","url":"wayside"},{"name":"","type":"Wildfire","state":"OR","resources":"","lat":"44.1634","lon":" -121.2974","geo":{"state":"OR","state_name":"Oregon","near":"Bend, OR","near_long":"Bend, Oregon","location":"4.5 miles N of Bend, OR"},"wfid":"107600","date":"1583275920","acres":null,"notes":"","updated":"1583436602","num":"BENN-31","status":"active","url":""},{"name":"1 Alpha 20","type":"Wildfire","state":"KS","resources":"","lat":"39.3761","lon":" -95.8615","geo":{"state":"KS","state_name":"Kansas","near":"Topeka, KS","near_long":"Topeka, Kansas","location":"18 miles NNW of Topeka, KS"},"wfid":"106277","date":"1581025800","acres":"16.5","notes":"7.82miles nw of mayetta, ks. Human caused, 16.5ac | Contain: 02\/06\/20 1645","updated":"1583436301","num":"HOA-83","status":"contained","url":"1-alpha-20"},{"name":"South Rattlesnake","type":"Wildfire","state":"KS","resources":"","lat":"38.0883","lon":" -98.5094","geo":{"state":"KS","state_name":"Kansas","near":"Sterling, KS","near_long":"Sterling, Kansas","location":"18.5 miles WSW of Sterling, KS"},"wfid":"106475","date":"1581363000","acres":"30","notes":"8 mi. E. Of hudson, ks. Size: 30ac. Human caused. | Contain: 02\/10\/20 1800","updated":"1583436301","num":"SFX-91","status":"contained","url":"south-rattlesnake"},{"name":"2 Bravo 20","type":"Wildfire","state":"KS","resources":"","lat":"39.3298","lon":" -95.8366","geo":{"state":"KS","state_name":"Kansas","near":"Topeka, KS","near_long":"Topeka, Kansas","location":"14.5 miles NNW of Topeka, KS"},"wfid":"106774","date":"1582069860","acres":"1","notes":"6 miles west of mayetta, ks. Size -1acre. Unknown cause. Contained 1700. | Contain: 02\/18\/20 1700","updated":"1583436301","num":"HOA-101","status":"contained","url":"2-bravo-20"},{"name":"L P Tunnel","type":"Structure fire","state":"CO","resources":"","lat":"40.6748","lon":" -105.8406","geo":{"state":"CO","state_name":"Colorado","near":"Denver, CO","near_long":"Denver, Colorado","location":"69.2 miles NW of Denver, CO"},"wfid":"106792","date":"1582142340","acres":"0.1","notes":"","updated":"1583436301","num":"ARF-46","status":"active","url":"l-p-tunnel"},{"name":"Junction School","type":"Wildfire","state":"CA","resources":"","lat":"41.393","lon":" -123.4946","geo":{"state":"CA","state_name":"California","near":"Burnt Ranch, CA","near_long":"Burnt Ranch, California","location":"42.8 miles N of Burnt Ranch, CA"},"wfid":"106824","date":"1582141980","acres":"0.1","notes":"05-10 p5m0b9","updated":"1583436301","num":"SRF-95","status":"active","url":"junction-school"},{"name":"Market","type":"Wildfire","state":"CA","resources":"","lat":"40.2403","lon":" -123.3155","geo":{"state":"CA","state_name":"California","near":"Burnt Ranch, CA","near_long":"Burnt Ranch, California","location":"37.4 miles S of Burnt Ranch, CA"},"wfid":"107034","date":"1582594620","acres":"0.1","notes":"05-10 p5m0f0","updated":"1583436301","num":"SRF-107","status":"active","url":"market"},{"name":"Cottonwood","type":"Wildfire","state":"WY","resources":"","lat":"42.1325","lon":" -104.7462","geo":{"state":"WY","state_name":"Wyoming","near":"Chugcreek, WY","near_long":"Chugcreek, Wyoming","location":"9.9 miles NE of Chugcreek, WY"},"wfid":"107042","date":"1582495920","acres":"39.8","notes":"Contain: 02\/24\/20 1145 | Control: 02\/24\/20 1145 | Out: 02\/24\/20 1145","updated":"1583436301","num":"PLX-200023","status":"out","url":"cottonwood"},{"name":"Charlie","type":"Wildfire","state":"CA","resources":"","lat":"40.183","lon":" -123.4442","geo":{"state":"CA","state_name":"California","near":"Burnt Ranch, CA","near_long":"Burnt Ranch, California","location":"40.9 miles S of Burnt Ranch, CA"},"wfid":"107150","date":"1582766280","acres":"2","notes":"05-10 p5m0hw","updated":"1583436301","num":"SRF-118","status":"active","url":"charlie"},{"name":"Neches Bluff","type":"Wildfire","state":"TX","resources":"","lat":"31.5618","lon":" -95.1671","geo":{"state":"TX","state_name":"Texas","near":"Lufkin, TX","near_long":"Lufkin, Texas","location":"27.2 miles NW of Lufkin, TX"},"wfid":"107159","date":"1582488780","acres":"0.1","notes":"Contain: 02\/24\/20 1006","updated":"1583436301","num":"TXF-55","status":"contained","url":"neches-bluff"},{"name":"Camp Strake","type":"Wildfire","state":"TX","resources":"","lat":"30.6157","lon":" -95.2539","geo":{"state":"TX","state_name":"Texas","near":"Houston, TX","near_long":"Houston, Texas","location":"43 miles N of Houston, TX"},"wfid":"107376","date":"1583034240","acres":"14","notes":"Contain: 03\/01\/20 0015 | Control: 03\/01\/20 1200","updated":"1583436301","num":"TXF-74","status":"contained","url":"camp-strake"},{"name":"Dismal Ca","type":"Wildfire","state":"NE","resources":"NBF DV 1","lat":"41.8251","lon":" -100.6946","geo":{"state":"NE","state_name":null,"near":", ","near_long":", ","location":"0 miles N of , "},"wfid":"107434","date":"1583179500","acres":"295","notes":"","updated":"1583436301","num":"NES-200097","status":"active","url":"dismal-ca"},{"name":"Bill Anderson","type":"Wildfire","state":"KS","resources":"","lat":"39.6904","lon":" -98.5861","geo":{"state":"KS","state_name":"Kansas","near":"Smith Center, KS","near_long":"Smith Center, Kansas","location":"12.1 miles ESE of Smith Center, KS"},"wfid":"107455","date":"1583009340","acres":"500","notes":"Approx 12 miles ese of smith center,ks size: 500acres, human caused  | Out: 02\/29\/20 1823","updated":"1583436301","num":"SMX-122","status":"out","url":"bill-anderson"},{"name":"Columbia River Road","type":"Wildfire","state":"WA","resources":"","lat":"48.1488","lon":" -119.1148","geo":{"state":"WA","state_name":"Washington","near":"Coulee Dam, WA","near_long":"Coulee Dam, Washington","location":"13.9 miles NNW of Coulee Dam, WA"},"wfid":"107580","date":"1583282880","acres":"0.3","notes":"Contain: 03\/03\/20 2020 | Control: 03\/04\/20 1018 | Out: 03\/04\/20 1018","updated":"1583436301","num":"COA-200040","status":"out","url":"columbia-river-road"},{"name":"Hall Creek Church","type":"Wildfire","state":"WA","resources":"","lat":"48.3020","lon":" -118.2238","geo":{"state":"WA","state_name":"Washington","near":"Spokane, WA","near_long":"Spokane, Washington","location":"50.4 miles NW of Spokane, WA"},"wfid":"107620","date":"1583354940","acres":"0.1","notes":"Contain: 03\/04\/20 1558 | Control: 03\/04\/20 1558 | Out: 03\/04\/20 1558","updated":"1583436301","num":"COA-200041","status":"out","url":"hall-creek-church"},{"name":"Gopher","type":"Wildfire","state":"CA","resources":"","lat":"40.8246","lon":" -124.1819","geo":{"state":"CA","state_name":"California","near":"Cutten, CA","near_long":"Cutten, California","location":"2.5 miles NNW of Cutten, CA"},"wfid":"107617","date":"1583349840","acres":null,"notes":"","updated":"1583436301","num":"SRF-122","status":"active","url":"gopher"},{"name":"West 380","type":"Wildfire","state":"NM","resources":"","lat":"33.2707","lon":" -103.4037","geo":{"state":"NM","state_name":"New Mexico","near":"Lovington, NM","near_long":"Lovington, New Mexico","location":"22.7 miles N of Lovington, NM"},"wfid":"105352","date":"1578605700","acres":"1,689","notes":"2,000 acre grass fire contained by BLM and county resources","updated":"1583436002","num":"N5S-8","status":"contained","url":"west-380"},{"name":"Orme Fa","type":"Wildfire","state":"AZ","resources":"","lat":"34.5016","lon":" -112.1521","geo":{"state":"AZ","state_name":"Arizona","near":"Phoenix, AZ","near_long":"Phoenix, Arizona","location":"46 miles N of Phoenix, AZ"},"wfid":"106344","date":"1581122520","acres":"0.1","notes":"","updated":"1583436002","num":"PNF-66","status":"active","url":"orme-fa"},{"name":"Big Fa","type":"Wildfire","state":"AZ","resources":"","lat":"34.1131","lon":" -114.3845","geo":{"state":"AZ","state_name":"Arizona","near":"Lake Havasu City, AZ","near_long":"Lake Havasu City, Arizona","location":"25.6 miles SSW of Lake Havasu City, AZ"},"wfid":"106345","date":"1581119700","acres":"0.1","notes":"","updated":"1583436002","num":"CRA-65","status":"active","url":"big-fa"},{"name":"County 13 1\/ 2","type":"Wildfire","state":"AZ","resources":"","lat":"32.6379","lon":" -114.7692","geo":{"state":"AZ","state_name":"Arizona","near":"Yuma, AZ","near_long":"Yuma, Arizona","location":"6.8 miles SW of Yuma, AZ"},"wfid":"106346","date":"1581113520","acres":"0.1","notes":"","updated":"1583436002","num":"FYA-64","status":"active","url":"county-13-1\/-2"},{"name":"Agua View","type":"Wildfire","state":"AZ","resources":"","lat":"34.8465","lon":" -114.5795","geo":{"state":"AZ","state_name":"Arizona","near":"Mohave Valley, AZ","near_long":"Mohave Valley, Arizona","location":"4.8 miles SSW of Mohave Valley, AZ"},"wfid":"106472","date":"1581480000","acres":"0.3","notes":"","updated":"1583436002","num":"CRA-72","status":"active","url":"agua-view"},{"name":"0154","type":"Structure fire","state":"AZ","resources":"","lat":"32.9148","lon":" -111.2939","geo":{"state":"AZ","state_name":"Arizona","near":"Mesa, AZ","near_long":"Mesa, Arizona","location":"35.2 miles SSE of Mesa, AZ"},"wfid":"107385","date":"1583154720","acres":null,"notes":"","updated":"1583436002","num":"A3S-154","status":"active","url":"0154"},{"name":"Welsh Fa","type":"Wildfire","state":"AZ","resources":"","lat":"33.7627","lon":" -114.493","geo":{"state":"AZ","state_name":"California","near":"Blythe, CA","near_long":"Blythe, California","location":"12.1 miles NNE of Blythe, CA"},"wfid":"106651","date":"1581615720","acres":"0.1","notes":"","updated":"1583436002","num":"CRA-76","status":"active","url":"welsh-fa"},{"name":"Havasu","type":"Wildfire","state":"AZ","resources":"","lat":"34.4543","lon":" -114.3305","geo":{"state":"AZ","state_name":"Arizona","near":"Lake Havasu City, AZ","near_long":"Lake Havasu City, Arizona","location":"2.3 miles S of Lake Havasu City, AZ"},"wfid":"106657","date":"1581843780","acres":"0.1","notes":"Contain: 02\/16\/20 1601 | Control: 02\/17\/20 1300 | Out: 03\/03\/20 1415","updated":"1583436002","num":"CRD-82","status":"out","url":"havasu"},{"name":"Raydon Fa","type":"Wildfire","state":"AZ","resources":"","lat":"34.1078","lon":" -114.3028","geo":{"state":"AZ","state_name":"Arizona","near":"Lake Havasu City, AZ","near_long":"Lake Havasu City, Arizona","location":"25.3 miles S of Lake Havasu City, AZ"},"wfid":"106702","date":"1581993000","acres":null,"notes":"","updated":"1583436002","num":"CRA-88","status":"active","url":"raydon-fa"},{"name":"Parker Dam","type":"Wildfire","state":"CA","resources":"","lat":"34.2796","lon":" -114.1375","geo":{"state":"CA","state_name":"Arizona","near":"Lake Havasu City, AZ","near_long":"Lake Havasu City, Arizona","location":"15.9 miles SSE of Lake Havasu City, AZ"},"wfid":"106703","date":"1582011000","acres":"14","notes":"Contain: 02\/19\/20 1630 | Control: 02\/24\/20 1240","updated":"1583436002","num":"CRD-87","status":"contained","url":"parker-dam"},{"name":"Burns Fa","type":"Wildfire","state":"AZ","resources":"","lat":"34.0862","lon":" -114.2938","geo":{"state":"AZ","state_name":"Arizona","near":"Lake Havasu City, AZ","near_long":"Lake Havasu City, Arizona","location":"26.8 miles S of Lake Havasu City, AZ"},"wfid":"106710","date":"1582042500","acres":"0.1","notes":"","updated":"1583436002","num":"CRA-89","status":"active","url":"burns-fa"},{"name":"Valley","type":"Wildfire","state":"AZ","resources":"","lat":"34.1636","lon":" -110.8809","geo":{"state":"AZ","state_name":"Arizona","near":"Christopher Creek, AZ","near_long":"Christopher Creek, Arizona","location":"13 miles SE of Christopher Creek, AZ"},"wfid":"106796","date":"1582141740","acres":"0.1","notes":"Contain: 02\/19\/20 1513 | Control: 02\/21\/20 1347 | Out: 02\/21\/20 1347","updated":"1583436002","num":"TNF-174","status":"out","url":"valley"},{"name":"Highway 96- 2","type":"Wildfire","state":"NM","resources":"","lat":"36.1953","lon":" -106.7445","geo":{"state":"NM","state_name":"New Mexico","near":"Espanola, NM","near_long":"Espanola, New Mexico","location":"39.7 miles WNW of Espanola, NM"},"wfid":"106874","date":"1582296900","acres":"0.5","notes":"","updated":"1583436002","num":"SNF-15","status":"active","url":"highway-962"},{"name":"Bull","type":"Wildfire","state":"AZ","resources":"","lat":"34.8608","lon":" -112.338","geo":{"state":"AZ","state_name":"Arizona","near":"Phoenix, AZ","near_long":"Phoenix, Arizona","location":"72.1 miles NNW of Phoenix, AZ"},"wfid":"106880","date":"1582067520","acres":"0.1","notes":"Contain: 02\/18\/20 1728 | Control: 03\/05\/20 1030 | Out: 03\/05\/20 1030","updated":"1583436002","num":"PNF-92","status":"out","url":"bull"},{"name":"Wash Fa","type":"Wildfire","state":"AZ","resources":"","lat":"33.2289","lon":" -114.2528","geo":{"state":"AZ","state_name":"California","near":"Blythe, CA","near_long":"Blythe, California","location":"32.5 miles SE of Blythe, CA"},"wfid":"106921","date":"1582344840","acres":"0.1","notes":"","updated":"1583436002","num":"CRD-99","status":"active","url":"wash-fa"},{"name":"Mm 44","type":"Wildfire","state":"NM","resources":"","lat":"32.483","lon":" -104.1101","geo":{"state":"NM","state_name":"New Mexico","near":"Carlsbad, NM","near_long":"Carlsbad, New Mexico","location":"9.6 miles NE of Carlsbad, NM"},"wfid":"106979","date":"1582055040","acres":"0.3","notes":"","updated":"1583436002","num":"CAD-26","status":"active","url":"mm-44"},{"name":"Ruby Hill","type":"Wildfire","state":"NV","resources":"","lat":"39.8125","lon":" -119.7875","geo":{"state":"NV","state_name":"Nevada","near":"Reno, NV","near_long":"Reno, Nevada","location":"9.5 miles WNW of Reno, NV"},"wfid":"106983","date":"1582416120","acres":"2","notes":"Controlled ","updated":"1583436002","num":"CCD-30058","status":"controlled","url":"ruby-hill"},{"name":"Percheron","type":"Wildfire","state":"NV","resources":"","lat":"39.9018","lon":" -119.9685","geo":{"state":"NV","state_name":"Nevada","near":"Reno, NV","near_long":"Reno, Nevada","location":"16.7 miles NNW of Reno, NV"},"wfid":"106987","date":"1582483080","acres":"0.1","notes":"Controlled","updated":"1583436002","num":"TMFX-30060","status":"controlled","url":"percheron"},{"name":"Highway 31","type":"Wildfire","state":"NM","resources":"","lat":"32.4591","lon":" -103.9341","geo":{"state":"NM","state_name":"New Mexico","near":"Carlsbad, NM","near_long":"Carlsbad, New Mexico","location":"18.4 miles ENE of Carlsbad, NM"},"wfid":"106989","date":"1582488000","acres":"2.3","notes":"2.3 acre fire contained by BLM and county resources","updated":"1583436002","num":"CAD-28","status":"contained","url":"highway-31"},{"name":"Hidden Shores","type":"Wildfire","state":"AZ","resources":"","lat":"32.8896","lon":" -114.4588","geo":{"state":"AZ","state_name":"Arizona","near":"Kinter, AZ","near_long":"Kinter, Arizona","location":"9.8 miles NNW of Kinter, AZ"},"wfid":"107074","date":"1582662780","acres":"52","notes":"Contain: 02\/26\/20 1700 | Control: 02\/29\/20 1400","updated":"1583436002","num":"CRD-105","status":"contained","url":"hidden-shores"},{"name":"Triple 8","type":"Wildfire","state":"AZ","resources":"","lat":"33.7261","lon":" -109.1713","geo":{"state":"AZ","state_name":"Arizona","near":"Eagar, AZ","near_long":"Eagar, Arizona","location":"27.2 miles SSE of Eagar, AZ"},"wfid":"107077","date":"1582662600","acres":"0.1","notes":"Contain: 02\/26\/20 1149 | Control: 02\/26\/20 1150 | Out: 02\/26\/20 1151","updated":"1583436002","num":"ASF-30","status":"out","url":"triple-8"},{"name":"Or Supporting Shell","type":"Wildfire","state":"CA","resources":"","lat":"38.2539","lon":" -119.232","geo":{"state":"CA","state_name":"California","near":"Aspen Springs, CA","near_long":"Aspen Springs, California","location":"56.4 miles NNW of Aspen Springs, CA"},"wfid":"107248","date":"1582744140","acres":"2.5","notes":"Controlled - firecode pnm0g820 (1502)","updated":"1583436002","num":"OVD-30066","status":"controlled","url":"or-supporting-shell"},{"name":"Breezy Fa","type":"Wildfire","state":"AZ","resources":"","lat":"34.4361","lon":" -112.3758","geo":{"state":"AZ","state_name":"Arizona","near":"Phoenix, AZ","near_long":"Phoenix, Arizona","location":"44.5 miles NNW of Phoenix, AZ"},"wfid":"107253","date":"1582912740","acres":null,"notes":"","updated":"1583436002","num":"PNF-112","status":"active","url":"breezy-fa"},{"name":"Cob","type":"Wildfire","state":"AZ","resources":"","lat":"33.8067","lon":" -109.9276","geo":{"state":"AZ","state_name":"Arizona","near":"East Fork, AZ","near_long":"East Fork, Arizona","location":"0.3 miles WSW of East Fork, AZ"},"wfid":"107264","date":"1582918980","acres":"0.1","notes":"Contain: 02\/28\/20 1410 | Control: 02\/28\/20 1411 | Out: 02\/28\/20 1630","updated":"1583436002","num":"FTA-36","status":"out","url":"cob"},{"name":"Potholes","type":"Wildfire","state":"CA","resources":"","lat":"32.8239","lon":" -114.5058","geo":{"state":"CA","state_name":"Arizona","near":"Kinter, AZ","near_long":"Kinter, Arizona","location":"7.8 miles NW of Kinter, AZ"},"wfid":"107279","date":"1582986600","acres":"19","notes":"Contain: 03\/01\/20 1615 | Control: 03\/04\/20 0615","updated":"1583436002","num":"FYA-113","status":"contained","url":"potholes"},{"name":"Drift","type":"Wildfire","state":"AZ","resources":"","lat":"33.7022","lon":" -111.5391","geo":{"state":"AZ","state_name":"Arizona","near":"Phoenix, AZ","near_long":"Phoenix, Arizona","location":"22.9 miles E of Phoenix, AZ"},"wfid":"107289","date":"1582988040","acres":"0.1","notes":"Contain: 02\/29\/20 1130 | Control: 02\/29\/20 1130","updated":"1583436002","num":"TNF-215","status":"contained","url":"drift"},{"name":"Mittry","type":"Wildfire","state":"AZ","resources":"","lat":"32.8141","lon":" -114.4871","geo":{"state":"AZ","state_name":"Arizona","near":"Kinter, AZ","near_long":"Kinter, Arizona","location":"6.5 miles NW of Kinter, AZ"},"wfid":"107300","date":"1583003820","acres":"0.1","notes":"Contain: 02\/29\/20 1158 | Control: 02\/29\/20 1159","updated":"1583436002","num":"CRD-117","status":"contained","url":"mittry"},{"name":"Mm 241","type":"Wildfire","state":"AZ","resources":"","lat":"34.0434","lon":" -112.1455","geo":{"state":"AZ","state_name":"Arizona","near":"Phoenix, AZ","near_long":"Phoenix, Arizona","location":"14.6 miles NNW of Phoenix, AZ"},"wfid":"107310","date":"1583013960","acres":"0.1","notes":"Contain: 03\/01\/20 1717 | Control: 03\/01\/20 1718","updated":"1583436002","num":"PHD-120","status":"contained","url":"mm-241"},{"name":"Robin","type":"Wildfire","state":"AZ","resources":"","lat":"31.4890","lon":" -109.6619","geo":{"state":"AZ","state_name":"Arizona","near":"Douglas, AZ","near_long":"Douglas, Arizona","location":"11.6 miles NW of Douglas, AZ"},"wfid":"107339","date":"1582934400","acres":"0.1","notes":"Contain: 02\/28\/20 1720 | Control: 02\/28\/20 1720","updated":"1583436002","num":"A3S-145","status":"contained","url":"robin"},{"name":"Crest","type":"Wildfire","state":"AZ","resources":"","lat":"33.4367","lon":" -111.9037","geo":{"state":"AZ","state_name":"Arizona","near":"Phoenix, AZ","near_long":"Phoenix, Arizona","location":"4.2 miles ESE of Phoenix, AZ"},"wfid":"107386","date":"1583150400","acres":"0.1","notes":"Contain: 03\/02\/20 1334","updated":"1583436002","num":"SRA-219","status":"contained","url":"crest"},{"name":"Ash Pit","type":"Wildfire","state":"CA","resources":"","lat":"39.9623","lon":" -120.0184","geo":{"state":"CA","state_name":"Nevada","near":"Reno, NV","near_long":"Reno, Nevada","location":"21.6 miles NNW of Reno, NV"},"wfid":"107393","date":"1583008620","acres":"10","notes":"Controlled","updated":"1583436002","num":"CCD-30070","status":"controlled","url":"ash-pit"},{"name":"Four","type":"Wildfire","state":"AZ","resources":"","lat":"33.6542","lon":" -111.5594","geo":{"state":"AZ","state_name":"Arizona","near":"Phoenix, AZ","near_long":"Phoenix, Arizona","location":"21.7 miles E of Phoenix, AZ"},"wfid":"107409","date":"1583164920","acres":"0.1","notes":"Contain: 03\/02\/20 0933","updated":"1583436002","num":"TNF-225","status":"contained","url":"four"},{"name":"Zenobia","type":"Wildfire","state":"NV","resources":"","lat":"40.1347","lon":" -119.7354","geo":{"state":"NV","state_name":"Nevada","near":"Reno, NV","near_long":"Reno, Nevada","location":"25.9 miles NNW of Reno, NV"},"wfid":"107420","date":"1583025120","acres":null,"notes":"Notification \/\/ vehicle fire extiguished tm","updated":"1583436002","num":"TMFX-30071","status":"active","url":"zenobia"},{"name":"Horse Canyon","type":"Wildfire","state":"NM","resources":"","lat":"36.6837","lon":" -108.0990","geo":{"state":"NM","state_name":"New Mexico","near":"Farmington, NM","near_long":"Farmington, New Mexico","location":"4.3 miles SE of Farmington, NM"},"wfid":"107430","date":"1583183340","acres":"0.1","notes":"Smoke report, resources e\/r.","updated":"1583436002","num":"FAD-30","status":"active","url":"horse-canyon"},{"name":"Vineyard","type":"Wildfire","state":"AZ","resources":"PHX CREW","lat":"33.3885","lon":" -112.3627","geo":{"state":"AZ","state_name":"Arizona","near":"Phoenix, AZ","near_long":"Phoenix, Arizona","location":"8.4 miles SSW of Phoenix, AZ"},"wfid":"107437","date":"1583241600","acres":"0.3","notes":"Contain: 03\/03\/20 1641 | Control: 03\/03\/20 1642","updated":"1583436002","num":"A4S-156","status":"contained","url":"vineyard"},{"name":"Harrison","type":"Wildfire","state":"NM","resources":"","lat":"33.9327","lon":" -104.6186","geo":{"state":"NM","state_name":"New Mexico","near":"Roswell, NM","near_long":"Roswell, New Mexico","location":"37.4 miles N of Roswell, NM"},"wfid":"107457","date":"1583199000","acres":"0.5","notes":"","updated":"1583436002","num":"ROD-38","status":"active","url":"harrison"},{"name":"Mile Marker 15","type":"Wildfire","state":"AZ","resources":"","lat":"35.8538","lon":" -114.5923","geo":{"state":"AZ","state_name":"Nevada","near":"Las Vegas, NV","near_long":"Las Vegas, Nevada","location":"29.8 miles SE of Las Vegas, NV"},"wfid":"107464","date":"1582818300","acres":"0.1","notes":"","updated":"1583436002","num":"LAP-500164","status":"active","url":"mile-marker-15"},{"name":"Mittry  2","type":"Wildfire","state":"AZ","resources":"","lat":"32.8141","lon":" -114.4867","geo":{"state":"AZ","state_name":"Arizona","near":"Kinter, AZ","near_long":"Kinter, Arizona","location":"6.5 miles NW of Kinter, AZ"},"wfid":"107548","date":"1583186820","acres":"0.1","notes":"Contain: 03\/02\/20 1530 | Control: 03\/02\/20 1530","updated":"1583436002","num":"CRD-126","status":"contained","url":"mittry2"},{"name":"Shea Fa","type":"Wildfire","state":"AZ","resources":"","lat":"34.1443","lon":" -114.2148","geo":{"state":"AZ","state_name":"Arizona","near":"Lake Havasu City, AZ","near_long":"Lake Havasu City, Arizona","location":"23.1 miles S of Lake Havasu City, AZ"},"wfid":"107549","date":"1583178300","acres":"0.1","notes":"","updated":"1583436002","num":"CRA-125","status":"active","url":"shea-fa"},{"name":"Sand","type":"Wildfire","state":"NM","resources":"","lat":"34.8397","lon":" -107.9119","geo":{"state":"NM","state_name":"New Mexico","near":"Albuquerque, NM","near_long":"Albuquerque, New Mexico","location":"61.2 miles WSW of Albuquerque, NM"},"wfid":"107609","date":"1583344500","acres":"0.1","notes":"","updated":"1583436002","num":"RPD-27","status":"active","url":"sand"},{"name":"Tr6","type":"Wildfire","state":"NM","resources":"","lat":"34.8687","lon":" -106.6751","geo":{"state":"NM","state_name":"New Mexico","near":"Albuquerque, NM","near_long":"Albuquerque, New Mexico","location":"11.2 miles SSE of Albuquerque, NM"},"wfid":"107610","date":"1583343240","acres":"0.1","notes":"Contain: 03\/04\/20 1125 | Control: 03\/04\/20 1125","updated":"1583436002","num":"SPA-26","status":"contained","url":"tr6"},{"name":"Slash","type":"Wildfire","state":"NM","resources":"","lat":"35.019","lon":" -108.8679","geo":{"state":"NM","state_name":"Arizona","near":"Houck, AZ","near_long":"Houck, Arizona","location":"26.6 miles SE of Houck, AZ"},"wfid":"107612","date":"1583252340","acres":"0.1","notes":"Contain: 03\/03\/20 1000 | Control: 03\/03\/20 1008 | Out: 03\/03\/20 1315","updated":"1583436002","num":"ZUA-24","status":"out","url":"slash"},{"name":"North Fields Road","type":"Wildfire","state":"NM","resources":"","lat":"35.0658","lon":" -108.8433","geo":{"state":"NM","state_name":"Arizona","near":"Houck, AZ","near_long":"Houck, Arizona","location":"25.8 miles ESE of Houck, AZ"},"wfid":"107613","date":"1583251500","acres":"0.3","notes":"Control: 03\/03\/20 1345 | Out: 03\/03\/20 1345","updated":"1583436002","num":"ZUA-23","status":"out","url":"north-fields-road"},{"name":"Mm 99","type":"Wildfire","state":"NM","resources":"","lat":"35.0757","lon":" -107.6124","geo":{"state":"NM","state_name":"New Mexico","near":"Albuquerque, NM","near_long":"Albuquerque, New Mexico","location":"42.9 miles W of Albuquerque, NM"},"wfid":"107614","date":"1582920600","acres":"0.5","notes":"","updated":"1583436002","num":"N6S-20","status":"active","url":"mm-99"},{"name":"Bridge","type":"Wildfire","state":"NM","resources":"","lat":"35.112","lon":" -107.7891","geo":{"state":"NM","state_name":"New Mexico","near":"Albuquerque, NM","near_long":"Albuquerque, New Mexico","location":"53.1 miles W of Albuquerque, NM"},"wfid":"107615","date":"1582845180","acres":"0.1","notes":"","updated":"1583436002","num":"N6S-18","status":"active","url":"bridge"},{"name":"Walker","type":"Wildfire","state":"UT","resources":"","lat":"40.2546","lon":" -109.916","geo":{"state":"UT","state_name":"Utah","near":"Roosevelt, UT","near_long":"Roosevelt, Utah","location":"5.3 miles SE of Roosevelt, UT"},"wfid":"107330","date":"1582876800","acres":"0.1","notes":"Jurisdition: nes, ownership: pri | Contain: 03\/02\/20 1527 | Control: 03\/02\/20 1530 | Out: 03\/02\/20 1532","updated":"1583435702","num":"NES-100007","status":"out","url":"walker"},{"name":"Wissiup","type":"Wildfire","state":"UT","resources":"","lat":"40.1432","lon":" -109.7273","geo":{"state":"UT","state_name":"Utah","near":"Roosevelt, UT","near_long":"Roosevelt, Utah","location":"17.9 miles SE of Roosevelt, UT"},"wfid":"107331","date":"1583034060","acres":"4.7","notes":"Jurisdiction\/ownership: uoa | Contain: 02\/29\/20 2119 | Control: 03\/02\/20 1244","updated":"1583435702","num":"UOA-100008","status":"contained","url":"wissiup"},{"name":"Lode Road","type":"Wildfire","state":"MT","resources":"","lat":"46.5554","lon":" -109.9234","geo":{"state":"MT","state_name":"Montana","near":"Billings, MT","near_long":"Billings, Montana","location":"81.2 miles NW of Billings, MT"},"wfid":"106120","date":"1580602500","acres":"3,680","notes":"Wheatland county fire, 25 miles north of harlowton. | Contain: 02\/04\/20 0800 | Control: 02\/06\/20 1400 | Out: 02\/06\/20 1400","updated":"1583435702","num":"LG44-200010","status":"out","url":"lode-road"},{"name":"Brush Road","type":"Wildfire","state":"UT","resources":"","lat":"39.4828","lon":" -112.5204","geo":{"state":"UT","state_name":"Utah","near":"Payson, UT","near_long":"Payson, Utah","location":"57.3 miles SW of Payson, UT"},"wfid":"106908","date":"1582331040","acres":"0.2","notes":"Contain: 02\/21\/20 1730 | Control: 02\/21\/20 1800","updated":"1583435702","num":"SCS-200007","status":"contained","url":"brush-road"},{"name":"Hideaway Rockport","type":"Wildfire","state":"UT","resources":"","lat":"40.7827","lon":" -111.3933","geo":{"state":"UT","state_name":"Utah","near":"Salt Lake City, UT","near_long":"Salt Lake City, Utah","location":"22.1 miles E of Salt Lake City, UT"},"wfid":"107010","date":"1582534800","acres":"0.1","notes":"","updated":"1583435702","num":"NES-200021","status":"active","url":"hideaway-rockport"},{"name":"1121 Hoytsville","type":"Wildfire","state":"UT","resources":"","lat":"40.8793","lon":" -111.384","geo":{"state":"UT","state_name":"Utah","near":"Salt Lake City, UT","near_long":"Salt Lake City, Utah","location":"24.4 miles ENE of Salt Lake City, UT"},"wfid":"107011","date":"1582498800","acres":"0.1","notes":"","updated":"1583435702","num":"NES-200020","status":"active","url":"1121-hoytsville"},{"name":"Harry","type":"Wildfire","state":"NV","resources":"","lat":"40.7545","lon":" -117.7207","geo":{"state":"NV","state_name":"Nevada","near":"Winnemucca, NV","near_long":"Winnemucca, Nevada","location":"14.7 miles S of Winnemucca, NV"},"wfid":"107312","date":"1583001720","acres":"58","notes":"Blm and grass valley vfd resources responded to 58 acre brush fire off harry rd.  Contained and controlled 2\/29\/2020 @1501.","updated":"1583435702","num":"PERX-20025","status":"contained","url":"harry"},{"name":"\/\/East Of Beaver","type":"Wildfire","state":"UT","resources":"","lat":"38.311","lon":" -112.5613","geo":{"state":"UT","state_name":"Utah","near":"Beaver, UT","near_long":"Beaver, Utah","location":"8.4 miles E of Beaver, UT"},"wfid":"107599","date":"1583007780","acres":null,"notes":"Human caused","updated":"1583435702","num":"UTCCD-46","status":"active","url":"\/\/east-of-beaver"},{"name":"Rim Rock","type":"Wildfire","state":"MT","resources":"","lat":"47.6013","lon":" -115.3737","geo":{"state":"MT","state_name":"Montana","near":"Thompson Falls, MT","near_long":"Thompson Falls, Montana","location":"2.1 miles SW of Thompson Falls, MT"},"wfid":"107608","date":"1583332620","acres":"0.1","notes":"Controlled @ 11:14, 03\/04\/2020.  Patrol status. | Contain: 03\/04\/20 1114 | Control: 03\/04\/20 1114","updated":"1583435702","num":"LNF-218","status":"contained","url":"rim-rock"},{"name":"Round","type":"Wildfire","state":"CA","resources":"","lat":"37.5087","lon":" -119.7408","geo":{"state":"CA","state_name":"California","near":"Fresno, CA","near_long":"Fresno, California","location":"44.6 miles N of Fresno, CA"},"wfid":"106310","date":"1581136020","acres":"24","notes":"Do not use p5mz62.  | Contain: 02\/11\/20 1404 | Out: 02\/21\/20 1140","updated":"1583435402","num":"SNF-97","status":"out","url":"round"},{"name":"Wagon","type":"Wildfire","state":"CA","resources":"","lat":"40.098","lon":" -120.9181","geo":{"state":"CA","state_name":"Nevada","near":"Reno, NV","near_long":"Reno, Nevada","location":"62.5 miles WNW of Reno, NV"},"wfid":"106541","date":"1581291780","acres":"0.5","notes":"P5mz7y 0511  so fire # 1, mhrd # 1 | Contain: 02\/09\/20 1645 | Control: 02\/09\/20 1645","updated":"1583435402","num":"PNF-143","status":"contained","url":"wagon"},{"name":"Eagle","type":"Wildfire","state":"CA","resources":"","lat":"36.5545","lon":" -118.7403","geo":{"state":"CA","state_name":"California","near":"Visalia, CA","near_long":"Visalia, California","location":"32.5 miles ENE of Visalia, CA"},"wfid":"106576","date":"1581633000","acres":"0.1","notes":"Mz82","updated":"1583435402","num":"KNP-4","status":"active","url":"eagle"},{"name":"Trinity","type":"Wildfire","state":"CA","resources":"","lat":"40.796","lon":" -122.7694","geo":{"state":"CA","state_name":"California","near":"Redding, CA","near_long":"Redding, California","location":"17.4 miles NW of Redding, CA"},"wfid":"107003","date":"1582335900","acres":"2.5","notes":"Contain: 02\/22\/20 1424","updated":"1583435402","num":"SHF-193","status":"contained","url":"trinity"},{"name":"Snyder","type":"Wildfire","state":"CA","resources":"","lat":"37.5863","lon":" -119.8514","geo":{"state":"CA","state_name":"California","near":"Fresno, CA","near_long":"Fresno, California","location":"50.1 miles N of Fresno, CA"},"wfid":"107138","date":"1582751700","acres":"0.3","notes":"Contain: 02\/26\/20 1655 | Control: 02\/27\/20 0940 | Out: 03\/03\/20 1440","updated":"1583435402","num":"SNF-153","status":"out","url":"snyder"},{"name":"Scott","type":"Wildfire","state":"CA","resources":"","lat":"37.5588","lon":" -119.85","geo":{"state":"CA","state_name":"California","near":"Fresno, CA","near_long":"Fresno, California","location":"48.2 miles N of Fresno, CA"},"wfid":"107277","date":"1582938000","acres":"0.3","notes":"Contain: 02\/28\/20 1758 | Control: 02\/29\/20 1212 | Out: 03\/01\/20 1534","updated":"1583435402","num":"SNF-158","status":"out","url":"scott"},{"name":"Boronda","type":"Wildfire","state":"CA","resources":"","lat":"36.2027","lon":" -121.7156","geo":{"state":"CA","state_name":"California","near":"San Jose, CA","near_long":"San Jose, California","location":"67.3 miles S of San Jose, CA"},"wfid":"107328","date":"1583020860","acres":"0","notes":"Contain: 02\/29\/20 1722 | Control: 02\/29\/20 1725 | Out: 02\/29\/20 1730","updated":"1583435402","num":"LPF-447","status":"out","url":"boronda"},{"name":"New","type":"Wildfire","state":"CA","resources":"","lat":"34.7533","lon":" -119.0694","geo":{"state":"CA","state_name":"California","near":"Lancaster, CA","near_long":"Lancaster, California","location":"24.2 miles W of Lancaster, CA"},"wfid":"107403","date":"1583093580","acres":null,"notes":"","updated":"1583435402","num":"LPF-456","status":"active","url":"new"},{"name":"Capt 3-43 Abandoned Camp","type":"Wildfire","state":"CA","resources":"","lat":"37.0811","lon":" -119.1968","geo":{"state":"CA","state_name":"California","near":"Fresno, CA","near_long":"Fresno, California","location":"32.9 miles NE of Fresno, CA"},"wfid":"107463","date":"1583252400","acres":null,"notes":"","updated":"1583435402","num":"SNF-166","status":"active","url":"capt-3-43-abandoned-camp"},{"name":"Sku Multiple Escaped Piles","type":"Wildfire","state":"CA","resources":"","lat":"41.2506","lon":" -122.0796","geo":{"state":"CA","state_name":"California","near":"Bella Vista, CA","near_long":"Bella Vista, California","location":"40.7 miles N of Bella Vista, CA"},"wfid":"107494","date":"1583109060","acres":null,"notes":"","updated":"1583435402","num":"SHF-215","status":"active","url":"sku-multiple-escaped-piles"},{"name":"Swanson","type":"Wildfire","state":"CA","resources":"","lat":"37.0889","lon":" -119.2771","geo":{"state":"CA","state_name":"California","near":"Fresno, CA","near_long":"Fresno, California","location":"29.7 miles NE of Fresno, CA"},"wfid":"107626","date":"1583357040","acres":"0.3","notes":"","updated":"1583435402","num":"SNF-169","status":"active","url":"swanson"},{"name":"Baseball","type":"Wildfire","state":"CA","resources":"","lat":"39.756","lon":" -122.941","geo":{"state":"CA","state_name":"California","near":"Chico, CA","near_long":"Chico, California","location":"56.9 miles W of Chico, CA"},"wfid":"107096","date":"1582632000","acres":"211","notes":"","updated":"1583434818","num":"6679","status":"active","url":"baseball"},{"name":"Bear","type":"Wildfire","state":"CA","resources":"","lat":"40.511092","lon":" -123.6378411","geo":{"state":"CA","state_name":"California","near":"Burnt Ranch, CA","near_long":"Burnt Ranch, California","location":"21.3 miles SSW of Burnt Ranch, CA"},"wfid":"106647","date":"1581814107","acres":"15","notes":"This fire is approximately 100% contained.","updated":"1583434801","num":"94f20083-2412-4058-bc16-afa6b45c3935","status":"active","url":"bear"},{"name":"Antelope","type":"Wildfire","state":"CA","resources":"","lat":"39.6923001","lon":" -120.3291855","geo":{"state":"NV","state_name":"Nevada","near":"Reno, NV","near_long":"Reno, Nevada","location":"23.8 miles W of Reno, NV"},"wfid":"106700","date":"1581977048","acres":"102","notes":"This fire is approximately 100% contained. | Out: 2\/20\/2020 21:40","updated":"1583434801","num":"c9bb59f7-be32-4296-8c11-3f1233116827","status":"out","url":"antelope"},{"name":"Beegum","type":"Wildfire","state":"CA","resources":"","lat":"40.33583333","lon":" -122.84722222","geo":{"state":"CA","state_name":"California","near":"Redding, CA","near_long":"Redding, California","location":"27.4 miles SW of Redding, CA"},"wfid":"106958","date":"1582472130","acres":"75","notes":"This fire is approximately 100% contained. | Out: 2\/24\/2020 21:32","updated":"1583434801","num":"f6e7a62d-4796-452d-8e41-66ed1aef6d63","status":"out","url":"beegum"},{"name":"Wood","type":"Wildfire","state":"CA","resources":"","lat":"40.62155","lon":" -120.49392","geo":{"state":"NV","state_name":"Nevada","near":"Reno, NV","near_long":"Reno, Nevada","location":"73.5 miles NNW of Reno, NV"},"wfid":"106969","date":"1582505420","acres":"57","notes":"This fire is approximately 100% contained. | Out: 2\/23\/2020 21:45","updated":"1583434801","num":"edd2012d-0574-46a1-97d5-9ca42e7c5912","status":"out","url":"wood"},{"name":"Grizzly","type":"Wildfire","state":"CA","resources":"","lat":"39.774968","lon":" -122.384532","geo":{"state":"CA","state_name":"California","near":"Chico, CA","near_long":"Chico, California","location":"27.4 miles W of Chico, CA"},"wfid":"107431","date":"1583183285","acres":"154","notes":"This fire is approximately 100% contained. | Out: 3\/5\/2020 14:26","updated":"1583434801","num":"405d5f3f-66c9-4b69-8660-82780fa582b5","status":"out","url":"grizzly"},{"name":"Mann","type":"Wildfire","state":"CA","resources":"","lat":"33.96957","lon":" -117.51793","geo":{"state":"CA","state_name":"California","near":"Los Angeles, CA","near_long":"Los Angeles, California","location":"36.2 miles E of Los Angeles, CA"},"wfid":"107558","date":"1583259230","acres":"180","notes":"This fire is approximately 65% contained.","updated":"1583434801","num":"e1298aaa-1337-412e-ba09-7b29e87dad8b","status":"active","url":"mann"},{"name":"Baker","type":"Wildfire","state":"CA","resources":"","lat":"39.45493","lon":" -121.12381","geo":{"state":"CA","state_name":"California","near":"Sacramento, CA","near_long":"Sacramento, California","location":"54 miles NNE of Sacramento, CA"},"wfid":"107572","date":"1583274043","acres":"0","notes":"This fire is approximately 0% contained.","updated":"1583434801","num":"7411452c-1613-4e4f-afe6-865db0c476c4","status":"active","url":"baker"},{"name":"Wildwood","type":"Wildfire","state":"CA","resources":"","lat":"34.1760","lon":" -117.2780","geo":{"state":"CA","state_name":"California","near":"Los Angeles, CA","near_long":"Los Angeles, California","location":"51.1 miles ENE of Los Angeles, CA"},"wfid":"107191","date":"1582821660","acres":"0.1","notes":"","updated":"1583429702","num":"BDF-3506","status":"active","url":"wildwood"},{"name":"Grove","type":"Wildfire","state":"CA","resources":"","lat":"34.2733","lon":" -117.5483","geo":{"state":"CA","state_name":"California","near":"Los Angeles, CA","near_long":"Los Angeles, California","location":"38.2 miles ENE of Los Angeles, CA"},"wfid":"107193","date":"1582824720","acres":"1","notes":"P5m0jr 0512","updated":"1583420703","num":"BDF-3509","status":"active","url":"grove"},{"name":"Sf\/Mm\/3618","type":"Structure fire","state":"CA","resources":"","lat":"34.2420","lon":" -116.3427","geo":{"state":"CA","state_name":"California","near":"Indio, CA","near_long":"Indio, California","location":"34.3 miles NNW of Indio, CA"},"wfid":"107294","date":"1582991580","acres":null,"notes":"","updated":"1583420703","num":"CDD-3589","status":"active","url":"sf\/mm\/3618"},{"name":"Sf\/Sandy\/82n","type":"Structure fire","state":"CA","resources":"","lat":"34.3971","lon":" -117.2151","geo":{"state":"CA","state_name":"California","near":"Los Angeles, CA","near_long":"Los Angeles, California","location":"58.9 miles ENE of Los Angeles, CA"},"wfid":"107347","date":"1583032920","acres":null,"notes":"","updated":"1583420703","num":"CDD-3700","status":"active","url":"sf\/sandy\/82n"},{"name":"","type":"Wildfire","state":"OR","resources":"","lat":"43.7261","lon":" -121.493","geo":{"state":"OR","state_name":"Oregon","near":"Bend, OR","near_long":"Bend, Oregon","location":"22.7 miles SSW of Bend, OR"},"wfid":"107422","date":"1583020800","acres":"7.5","notes":"Out: 03\/02\/20 0934","updated":"1583366404","num":"955S-28","status":"active","url":""},{"name":"Elder Hill","type":"Wildfire","state":"WA","resources":"","lat":"47.5127","lon":" -117.1419","geo":{"state":"WA","state_name":"Washington","near":"Spokane, WA","near_long":"Spokane, Washington","location":"11 miles SSE of Spokane, WA"},"wfid":"107073","date":"1582577640","acres":"1.1","notes":"Contain: 02\/24\/20 1405 | Control: 02\/24\/20 1500 | Out: 02\/25\/20 1200","updated":"1583355902","num":"NES-1054","status":"out","url":"elder-hill"},{"name":"","type":"Wildfire","state":"OR","resources":"","lat":"43.9862","lon":" -121.213","geo":{"state":"OR","state_name":"Oregon","near":"Bend, OR","near_long":"Bend, Oregon","location":"4.9 miles ESE of Bend, OR"},"wfid":"107292","date":"1582928520","acres":"0.3","notes":"","updated":"1583337603","num":"BENN-27","status":"active","url":""},{"name":"Pinto Creek","type":"Wildfire","state":"UT","resources":"","lat":"37.6114","lon":" -113.509","geo":{"state":"UT","state_name":"Utah","near":"Cedar City, UT","near_long":"Cedar City, Utah","location":"17.5 miles WSW of Cedar City, UT"},"wfid":"106414","date":"1581201000","acres":"6","notes":"Structures threatened yes, human caused | Contain: 02\/08\/20 1800 | Control: 02\/08\/20 1800 | Out: 02\/09\/20 0900","updated":"1583336701","num":"UTSWS-32","status":"out","url":"pinto-creek"},{"name":"Mt Baldy Rx Spot","type":"Wildfire","state":"CA","resources":"","lat":"34.2444","lon":" -117.6528","geo":{"state":"CA","state_name":"California","near":"Los Angeles, CA","near_long":"Los Angeles, California","location":"31.9 miles ENE of Los Angeles, CA"},"wfid":"107293","date":"1582957860","acres":null,"notes":"","updated":"1583334302","num":"ANF-608","status":"active","url":"mt-baldy-rx-spot"},{"name":"Shell","type":"Wildfire","state":"CA","resources":"","lat":"38.2539","lon":" -119.2320","geo":{"state":"CA","state_name":"California","near":"Aspen Springs, CA","near_long":"Aspen Springs, California","location":"56.4 miles NNW of Aspen Springs, CA"},"wfid":"107256","date":"1582747740","acres":"2.5","notes":"Pdm0jn (1502) | Contain: 02\/26\/20 1510 | Control: 02\/26\/20 1510","updated":"1583332502","num":"OVD-258","status":"contained","url":"shell"},{"name":"Fence","type":"Wildfire","state":"AZ","resources":"","lat":"34.5592","lon":" -109.4994","geo":{"state":"AZ","state_name":"Arizona","near":"Saint Johns, AZ","near_long":"Saint Johns, Arizona","location":"7.8 miles WNW of Saint Johns, AZ"},"wfid":"107031","date":"1582595100","acres":"0.3","notes":"Contain: 02\/24\/20 1940 | Control: 02\/24\/20 1940 | Out: 02\/24\/20 1940","updated":"1583274002","num":"A2S-132","status":"out","url":"fence"},{"name":"Arandas","type":"Wildfire","state":"AZ","resources":"","lat":"35.3893","lon":" -113.0007","geo":{"state":"AZ","state_name":"Arizona","near":"Antares, AZ","near_long":"Antares, Arizona","location":"45.5 miles E of Antares, AZ"},"wfid":"107033","date":"1582573440","acres":"2","notes":"Contain: 02\/24\/20 1245 | Control: 02\/24\/20 1245 | Out: 02\/24\/20 1250","updated":"1583274002","num":"A5S-130","status":"out","url":"arandas"},{"name":"Vantage Highway","type":"Wildfire","state":"WA","resources":"","lat":"46.9987","lon":" -120.3538","geo":{"state":"WA","state_name":"Washington","near":"Ellensburg, WA","near_long":"Ellensburg, Washington","location":"8.9 miles E of Ellensburg, WA"},"wfid":"107271","date":"1582923900","acres":"2","notes":"Contain: 02\/28\/20 1630 | Control: 02\/28\/20 1630 | Out: 02\/28\/20 1630","updated":"1583269502","num":"KTTN-27","status":"out","url":"vantage-highway"},{"name":"Shu Silver","type":"Wildfire","state":"CA","resources":"","lat":"40.7416","lon":" -122.2376","geo":{"state":"CA","state_name":"California","near":"Bella Vista, CA","near_long":"Bella Vista, California","location":"5.5 miles NNW of Bella Vista, CA"},"wfid":"107495","date":"1582911840","acres":null,"notes":"","updated":"1583264402","num":"SHF-206","status":"unknown","url":"shu-silver"},{"name":"Sf\/Mt\/83a","type":"Structure fire","state":"CA","resources":"","lat":"34.4395","lon":" -116.8104","geo":{"state":"CA","state_name":"California","near":"Hesperia, CA","near_long":"Hesperia, California","location":"26.6 miles E of Hesperia, CA"},"wfid":"107259","date":"1582914000","acres":null,"notes":"","updated":"1583258702","num":"CDD-3550","status":"unknown","url":"sf\/mt\/83a"},{"name":"Dayton Line Machine","type":"Wildfire","state":"MT","resources":"","lat":"47.9434","lon":" -114.3206","geo":{"state":"MT","state_name":"Montana","near":"Kalispell, MT","near_long":"Kalispell, Montana","location":"17.3 miles S of Kalispell, MT"},"wfid":"107252","date":"1582911180","acres":"0","notes":"Protection agency: ku - private. Human. | Contain: 02\/28\/20 1325 | Control: 02\/28\/20 1328 | Out: 02\/28\/20 1330","updated":"1583255702","num":"NWS-5","status":"out","url":"dayton-line-machine"},{"name":"Longfellow Complex","type":"Wildfire","state":"TX","resources":"","lat":"30.231","lon":" -102.594","geo":{"state":"TX","state_name":"Texas","near":"Farwell, TX","near_long":"Farwell, Texas","location":"39.1 miles E of Farwell, TX"},"wfid":"107320","date":"1582632000","acres":"6,300","notes":"","updated":"1583254811","num":"6680","status":"unknown","url":"longfellow-complex"},{"name":"New","type":"Wildfire","state":"AZ","resources":"","lat":"31.9235","lon":" -110.2728","geo":{"state":"AZ","state_name":"Arizona","near":"Tucson, AZ","near_long":"Tucson, Arizona","location":"25 miles ESE of Tucson, AZ"},"wfid":"107465","date":"1583252400","acres":null,"notes":"","updated":"1583254201","num":"ADC-157","status":"unknown","url":"new"},{"name":"Luce","type":"Wildfire","state":"NM","resources":"","lat":"33.3994","lon":" -103.7308","geo":{"state":"NM","state_name":"New Mexico","near":"Lovington, NM","near_long":"Lovington, New Mexico","location":"38.3 miles NW of Lovington, NM"},"wfid":"106978","date":"1582149720","acres":"0.5","notes":"","updated":"1583250602","num":"N5S-27","status":"unknown","url":"luce"},{"name":"North Cole","type":"Wildfire","state":"NM","resources":"","lat":"33.3747","lon":" -104.7969","geo":{"state":"NM","state_name":"New Mexico","near":"Roswell, NM","near_long":"Roswell, New Mexico","location":"15.9 miles W of Roswell, NM"},"wfid":"107452","date":"1582846200","acres":"0.5","notes":"","updated":"1583250602","num":"ROD-37","status":"unknown","url":"north-cole"},{"name":"Old Tyler","type":"Wildfire","state":"OR","resources":"","lat":"43.362","lon":" -119.3081","geo":{"state":"OR","state_name":"Oregon","near":"Hines, OR","near_long":"Hines, Oregon","location":"18.1 miles SW of Hines, OR"},"wfid":"106889","date":"1582315020","acres":"133","notes":"Prm0cy (1502) | Contain: 02\/21\/20 1810 | Control: 02\/22\/20 1604","updated":"1583247601","num":"MAR-2005","status":"contained","url":"old-tyler"},{"name":"Sf\/Mt\/81a","type":"Structure fire","state":"CA","resources":"","lat":"34.1420","lon":" -116.3387","geo":{"state":"CA","state_name":"California","near":"Indio, CA","near_long":"Indio, California","location":"27.5 miles NNW of Indio, CA"},"wfid":"107227","date":"1582850520","acres":null,"notes":"","updated":"1583195702","num":"CDD-3536","status":"unknown","url":"sf\/mt\/81a"},{"name":"North Sandwash","type":"Wildfire","state":"UT","resources":"","lat":"40.3116","lon":" -110.2568","geo":{"state":"UT","state_name":"Utah","near":"Roosevelt, UT","near_long":"Roosevelt, Utah","location":"13.7 miles W of Roosevelt, UT"},"wfid":"107075","date":"1582653960","acres":"10.6","notes":"Jurisdition\/ ownership: uoa | Contain: 02\/25\/20 1600 | Control: 02\/26\/20 1525 | Out: 02\/26\/20 1502","updated":"1583189101","num":"UOA-100006","status":"out","url":"north-sandwash"},{"name":"Pine","type":"Wildfire","state":"TX","resources":"","lat":"33.4088","lon":" -97.6386","geo":{"state":"TX","state_name":"Texas","near":"Fort Worth, TX","near_long":"Fort Worth, Texas","location":"34.9 miles NNW of Fort Worth, TX"},"wfid":"107158","date":"1582563720","acres":"0.1","notes":"Contain: 02\/24\/20 1112","updated":"1583175301","num":"TXF-56","status":"contained","url":"pine"},{"name":"Veg\/Mt\/81a","type":"Wildfire","state":"CA","resources":"","lat":"34.1350","lon":" -116.3958","geo":{"state":"CA","state_name":"California","near":"Indio, CA","near_long":"Indio, California","location":"27.9 miles NNW of Indio, CA"},"wfid":"107204","date":"1582829820","acres":null,"notes":"","updated":"1583174102","num":"CDD-3515","status":"unknown","url":"veg\/mt\/81a"},{"name":"Tower","type":"Wildfire","state":"NM","resources":"","lat":"36.2039","lon":" -104.3327","geo":{"state":"NM","state_name":"New Mexico","near":"Springer, NM","near_long":"Springer, New Mexico","location":"21.1 miles SE of Springer, NM"},"wfid":"107197","date":"1582749780","acres":"10","notes":"Fire out 2\/26\/20 @ 1640","updated":"1583173203","num":"N2S-24","status":"out","url":"tower"},{"name":"","type":"Wildfire","state":"OR","resources":"","lat":"44.344","lon":" -121.3771","geo":{"state":"OR","state_name":"Oregon","near":"Redmond, OR","near_long":"Redmond, Oregon","location":"9.7 miles WNW of Redmond, OR"},"wfid":"106930","date":"1582404840","acres":"13.7","notes":"Blm fr needed, bd | Contain: 02\/22\/20 1729 | Control: 02\/25\/20 1531 | Out: 03\/02\/20 0956","updated":"1583172004","num":"PRD-23","status":"out","url":""},{"name":"Gamboa","type":"Wildfire","state":"CA","resources":"","lat":"36.0488","lon":" -121.5893","geo":{"state":"CA","state_name":"California","near":"San Jose, CA","near_long":"San Jose, California","location":"78.4 miles S of San Jose, CA"},"wfid":"106704","date":"1582027800","acres":"0.1","notes":"","updated":"1583170802","num":"LPF-358","status":"unknown","url":"gamboa"},{"name":"Hole Eight","type":"Wildfire","state":"NV","resources":"","lat":"36.1319","lon":" -115.3529","geo":{"state":"NV","state_name":"Nevada","near":"Las Vegas, NV","near_long":"Las Vegas, Nevada","location":"0.6 miles SSW of Las Vegas, NV"},"wfid":"107148","date":"1582755060","acres":"0.1","notes":"Red rock ","updated":"1583164202","num":"SND-500150","status":"unknown","url":"hole-eight"},{"name":"Laco-Brush\/ Utl","type":"Wildfire","state":"CA","resources":"","lat":"34.2758","lon":" -118.3779","geo":{"state":"CA","state_name":"California","near":"Los Angeles, CA","near_long":"Los Angeles, California","location":"11 miles NNW of Los Angeles, CA"},"wfid":"107178","date":"1582817220","acres":null,"notes":"","updated":"1583161501","num":"ANF-589","status":"unknown","url":"laco-brush\/-utl"},{"name":"Cattle","type":"Wildfire","state":"AZ","resources":"","lat":"33.3158","lon":" -110.4647","geo":{"state":"AZ","state_name":"Arizona","near":"Pinal, AZ","near_long":"Pinal, Arizona","location":"17.5 miles ESE of Pinal, AZ"},"wfid":"106812","date":"1582214040","acres":"1.5","notes":"Contain: 02\/20\/20 1054 | Control: 02\/20\/20 1054","updated":"1583157002","num":"SCA-175","status":"contained","url":"cattle"},{"name":"New","type":"Wildfire","state":"CA","resources":"ED-10 K-ED-12 K-ED-14","lat":"34.3005","lon":" -117.838","geo":{"state":"CA","state_name":"California","near":"Los Angeles, CA","near_long":"Los Angeles, California","location":"23.7 miles ENE of Los Angeles, CA"},"wfid":"107382","date":"1583102760","acres":null,"notes":"","updated":"1583103902","num":"ANF-639","status":"unknown","url":"new"},{"name":"Cold","type":"Wildfire","state":"TX","resources":"","lat":"30.479","lon":" -95.6098","geo":{"state":"TX","state_name":"Texas","near":"Houston, TX","near_long":"Houston, Texas","location":"33.4 miles NNW of Houston, TX"},"wfid":"107161","date":"1581702000","acres":"33","notes":"On friday we found a natural out wildfire on the sam houston | Contain: 02\/15\/20 0900 | Control: 02\/15\/20 0910 | Out: 02\/15\/20 1000","updated":"1583099701","num":"TXF-51","status":"out","url":"cold"},{"name":"","type":"Wildfire","state":"OR","resources":"","lat":"44.1793","lon":" -121.0779","geo":{"state":"OR","state_name":"Oregon","near":"Redmond, OR","near_long":"Redmond, Oregon","location":"9.2 miles SE of Redmond, OR"},"wfid":"107139","date":"1582754100","acres":"5","notes":"Need BLM fr, bd","updated":"1583098202","num":"CRRN-26","status":"unknown","url":""},{"name":"Pioneer","type":"Wildfire","state":"CA","resources":"","lat":"40.1197","lon":" -120.9053","geo":{"state":"CA","state_name":"Nevada","near":"Reno, NV","near_long":"Reno, Nevada","location":"62.7 miles WNW of Reno, NV"},"wfid":"107127","date":"1582742340","acres":null,"notes":"","updated":"1583088001","num":"PNF-212","status":"unknown","url":"pioneer"},{"name":"Fg\/Sk\/Capt 3639","type":"Wildfire","state":"CA","resources":"","lat":"34.8255","lon":" -114.5962","geo":{"state":"CA","state_name":"Arizona","near":"Mohave Valley, AZ","near_long":"Mohave Valley, Arizona","location":"6.5 miles SSW of Mohave Valley, AZ"},"wfid":"107122","date":"1582741440","acres":null,"notes":"","updated":"1583085901","num":"CDD-3469","status":"unknown","url":"fg\/sk\/capt-3639"},{"name":"Deer","type":"Wildfire","state":"OR","resources":"","lat":"43.6707","lon":" -121.5566","geo":{"state":"OR","state_name":"Oregon","near":"Bend, OR","near_long":"Bend, Oregon","location":"27.5 miles SSW of Bend, OR"},"wfid":"107091","date":"1582671420","acres":"0.8","notes":"Contain: 02\/26\/20 1220 | Control: 02\/26\/20 1221 | Out: 02\/26\/20 1222","updated":"1583015402","num":"955S-25","status":"out","url":"deer"},{"name":"Lac-Mesa","type":"Wildfire","state":"CA","resources":"","lat":"34.4461","lon":" -117.9356","geo":{"state":"CA","state_name":"California","near":"Los Angeles, CA","near_long":"Los Angeles, California","location":"26.3 miles NE of Los Angeles, CA"},"wfid":"107108","date":"1582656000","acres":null,"notes":"","updated":"1583001302","num":"ANF-576","status":"unknown","url":"lac-mesa"},{"name":"Lost","type":"Wildfire","state":"CA","resources":"","lat":"34.48","lon":" -118.4387","geo":{"state":"CA","state_name":"California","near":"Los Angeles, CA","near_long":"Los Angeles, California","location":"25.4 miles N of Los Angeles, CA"},"wfid":"107006","date":"1582574760","acres":null,"notes":"So# 5...Do# 3...P5ek1s-0501","updated":"1582920302","num":"ANF-570","status":"unknown","url":"lost"},{"name":"Illegal Campfire","type":"Wildfire","state":"AZ","resources":"","lat":"34.7072","lon":" -112.0634","geo":{"state":"AZ","state_name":"Arizona","near":"Phoenix, AZ","near_long":"Phoenix, Arizona","location":"60.1 miles N of Phoenix, AZ"},"wfid":"106281","date":"1581099300","acres":null,"notes":"","updated":"1582917601","num":"PNF-59","status":"unknown","url":"illegal-campfire"},{"name":"Frontage","type":"Wildfire","state":"CA","resources":"","lat":"34.2030","lon":" -117.3767","geo":{"state":"CA","state_name":"California","near":"Los Angeles, CA","near_long":"Los Angeles, California","location":"46.1 miles ENE of Los Angeles, CA"},"wfid":"107049","date":"1582567320","acres":"0.1","notes":"P5ek13 \/ 0512","updated":"1582911301","num":"BDF-3403","status":"unknown","url":"frontage"},{"name":"","type":"Wildfire","state":"OR","resources":"","lat":"44.1983","lon":" -120.602","geo":{"state":"OR","state_name":"Oregon","near":"Redmond, OR","near_long":"Redmond, Oregon","location":"30.4 miles E of Redmond, OR"},"wfid":"107057","date":"1582497660","acres":"0.3","notes":"Blm fr needed, bd | Contain: 02\/25\/20 1515 | Control: 02\/25\/20 1515 | Out: 02\/25\/20 1515","updated":"1582842603","num":"PRD-24","status":"out","url":""},{"name":"Kyle","type":"Wildfire","state":"NV","resources":"","lat":"36.235","lon":" -115.4533","geo":{"state":"NV","state_name":"Nevada","near":"Las Vegas, NV","near_long":"Las Vegas, Nevada","location":"4.3 miles ESE of Las Vegas, NV"},"wfid":"106895","date":"1582318260","acres":"0.1","notes":"","updated":"1582842002","num":"SND-500139","status":"unknown","url":"kyle"},{"name":"Hidden Shores","type":"Wildfire","state":"AZ","resources":"","lat":"32.89","lon":" -114.459","geo":{"state":"AZ","state_name":"Arizona","near":"Kinter, AZ","near_long":"Kinter, Arizona","location":"9.8 miles NNW of Kinter, AZ"},"wfid":"107087","date":"1582634700","acres":"10","notes":"","updated":"1582837235","num":"6678","status":"unknown","url":"hidden-shores"},{"name":"Eagle Rock Road","type":"Wildfire","state":"MT","resources":"","lat":"47.308","lon":" -110.674","geo":{"state":"MT","state_name":"Montana","near":"Great Falls, MT","near_long":"Great Falls, Montana","location":"29.6 miles ESE of Great Falls, MT"},"wfid":"106053","date":"1580658120","acres":"2,700","notes":"","updated":"1581342301","num":"MTLG36-4","status":"unknown","url":"eagle-rock-road"},{"name":"Lost Lake","type":"Wildfire","state":"MT","resources":"","lat":"47.649","lon":" -110.471","geo":{"state":"MT","state_name":"Montana","near":"Great Falls, MT","near_long":"Great Falls, Montana","location":"38.3 miles ENE of Great Falls, MT"},"wfid":"106122","date":"1580658660","acres":"1,041","notes":"County fire no resources responded from dnrc","updated":"1581342301","num":"MTLG19-5","status":"unknown","url":"lost-lake"}],"totalfires":165}